[
    {
        "name": "GyeongJu, Korea",
        "ISO_A2": "KR",
        "lat": 35.8562,
        "lng": 129.2247,
        "year": 1990,
        "details": "Childhood and early education. Grew up surrounded by historic temples and traditional Korean culture."
    },
    {
        "name": "Grenfell, Canada",
        "ISO_A2": "CA",
        "lat": 50.4139,
        "lng": -102.9305,
        "year": 2006,
        "details": "High school years. First international experience and adaptation to Western education."
    },
    {
        "name": "Waterloo, Canada",
        "ISO_A2": "CA",
        "lat": 43.4643,
        "lng": -80.5204,
        "year": 2009,
        "details": "University of Waterloo, Robotics. Foundational education in technology."
    },
    {
        "name": "Waterloo, Canada",
        "ISO_A2": "CA",
        "lat": 43.4643,
        "lng": -80.5204,
        "year": 2010,
        "job": "Research Assistant, Intern",
        "details": ""
    },
    {
        "name": "Kanata, Canada",
        "ISO_A2": "CA",
        "lat": 45.3059,
        "lng": -75.8980,
        "year": 2011,
        "month": 1,
        "job": "Software Verification, Intern",
        "details": "Intern at Honeywell Aerospace, automated HIL test cases for satellite communications."
    },
    {
        "name": "Kanata, Canada",
        "ISO_A2": "CA",
        "lat": 45.3059,
        "lng": -75.8980,
        "year": 2011,
        "month": 9,
        "job": "Software Verification, Intern",
        "details": "Intern at Honeywell Aerospace, automated HIL test cases for satellite communications."
    },
    {
        "name": "St. Catharines, Canada",
        "ISO_A2": "CA",
        "lat": 43.1594,
        "lng": -79.2469,
        "year": 2013,
        "month": 1,
        "job": "Controls Engineer, Intern",
        "details": "Controls Designer Intern at General Motors, worked on AGV and conveyor systems integration."
    },
    {
        "name": "Waterloo, Canada",
        "ISO_A2": "CA",
        "lat": 43.4643,
        "lng": -80.5204,
        "year": 2013,
        "month": 9,
        "job": "Mechanical Designer, Intern",
        "details": "Intern at Blackberry, developed PCB inspection systems using computer vision techniques."
    },
    {
        "name": "Waterloo, Canada",
        "ISO_A2": "CA",
        "lat": 43.4643,
        "lng": -80.5204,
        "year": 2014,
        "job": "Mechanical Designer, Intern",
        "details": "Co-founded Yunlab, developed machine monitoring systems integrated with university platforms."
    },
    {
        "name": "Waterloo, Canada",
        "ISO_A2": "CA",
        "lat": 43.4643,
        "lng": -80.5204,
        "year": 2015,
        "job": "Research Scientist",
        "details": "Co-founded Yunlab, developed machine monitoring systems integrated with university platforms."
    },
    {
        "name": "Shenzhen, China",
        "ISO_A2": "CN",
        "lat": 22.5431,
        "lng": 114.0579,
        "year": 2016,
        "job":" Robotics Software Engineer",
        "details": "Robotics Software Engineer at Dorabot, working on planning, tracking, and vision systems for logistics robots."
    },
    {
        "name": "Shenzhen, China",
        "ISO_A2": "CN",
        "lat": 22.5431,
        "lng": 114.0579,
        "year": 2018,
        "job": "Lead Robotics Software Engineer",
        "details": "Lead Robotics Software Engineer at Dorabot, leading development of warehouse robotics solutions."
    },
    {
        "name": "Barcelona, Spain",
        "ISO_A2": "ES",
        "lat": 41.3851,
        "lng": 2.1734,
        "year": 2019,
        "job": "Senior Robotics Software Engineer",
        "details": "Full-time robotics engineer. Leading innovation in European tech scene while enjoying Mediterranean lifestyle."
    },
    {
        "name": "Barcelona, Spain",
        "ISO_A2": "ES",
        "lat": 41.3851,
        "lng": 2.1734,
        "year": 2025,
        "job": "Senior Robotics Software Engineer",
        "details": "Full-time robotics engineer. Leading innovation in European tech scene while enjoying Mediterranean lifestyle."
    }
]