[
    {
        "name": "GyeongJu, Korea",
        "ISO_A2": "KR",
        "lat": 35.8562,
        "lng": 129.2247,
        "year": 1990,
        "details": "Childhood and early education. Grew up surrounded by historic temples and traditional Korean culture."
    },
    {
        "name": "Grenfell, Canada",
        "ISO_A2": "CA",
        "lat": 50.4139,
        "lng": -102.9305,
        "year": 2006,
        "details": "High school years. First international experience and adaptation to Western education."
    },
    {
        "name": "Waterloo, Canada",
        "ISO_A2": "CA",
        "lat": 43.4643,
        "lng": -80.5204,
        "year": 2009
    },
    {
        "name": "Waterloo, Canada",
        "ISO_A2": "CA",
        "lat": 43.4643,
        "lng": -80.5204,
        "year": 2010
    },
    {
        "name": "Kanata, Canada",
        "ISO_A2": "CA",
        "lat": 45.3059,
        "lng": -75.8980,
        "year": 2011
    },
    {
        "name": "Kanata, Canada",
        "ISO_A2": "CA",
        "lat": 45.3059,
        "lng": -75.8980,
        "year": 2012
    },
    {
        "name": "St. Catharines, Canada",
        "ISO_A2": "CA",
        "lat": 43.1594,
        "lng": -79.2469,
        "year": 2013
    },
    {
        "name": "Waterloo, Canada",
        "ISO_A2": "CA",
        "lat": 43.4643,
        "lng": -80.5204,
        "year": 2013
    },
    {
        "name": "Waterloo, Canada",
        "ISO_A2": "CA",
        "lat": 45.3439,
        "lng": -75.9094,
        "year": 2014
    },
    {
        "name": "Waterloo, Canada",
        "ISO_A2": "CA",
        "lat": 43.4643,
        "lng": -80.5204,
        "year": 2015,
        "job": "Research Scientist",
        "details": "Co-founded Yunlab, developed machine monitoring systems integrated with university platforms."
    },
    {
        "name": "Shenzhen, China",
        "ISO_A2": "CN",
        "lat": 22.5431,
        "lng": 114.0579,
        "year": 2016
    },
    {
        "name": "Shenzhen, China",
        "ISO_A2": "CN",
        "lat": 22.5431,
        "lng": 114.0579,
        "year": 2018
    },
    {
        "name": "Barcelona, Spain",
        "ISO_A2": "ES",
        "lat": 41.3851,
        "lng": 2.1734,
        "year": 2019
    },
    {
        "name": "Barcelona, Spain",
        "ISO_A2": "ES",
        "lat": 41.3851,
        "lng": 2.1734,
        "year": 2025
    }
]